{
	"code": 200,
	"result": {
		"location": {
			"lat": 34.75381,
			"lng": 111.67739
		},
		"address": "河南省三门峡市渑池县连霍高速公路",
		"formatted_addresses": {
			"recommend": "渑池县张村镇连霍高速公路(寨子)",
			"rough": "渑池县张村镇连霍高速公路(寨子)"
		},
		"address_component": {
			"nation": "中国",
			"province": "河南省",
			"city": "三门峡市",
			"district": "渑池县",
			"street": "连霍高速公路",
			"street_number": "连霍高速公路"
		},
		"ad_info": {
			"nation_code": "156",
			"adcode": "411221",
			"phone_area_code": "0398",
			"city_code": "156411200",
			"name": "中国,河南省,三门峡市,渑池县",
			"location": {
				"lat": 34.767937,
				"lng": 111.761753
			},
			"nation": "中国",
			"province": "河南省",
			"city": "三门峡市",
			"district": "渑池县"
		},
		"address_reference": {
			"street_number": {
				"id": "",
				"title": "",
				"location": {
					"lat": 34.753863,
					"lng": 111.677367
				},
				"_distance": 0
			},
			"town": {
				"id": "411221102",
				"title": "张村镇",
				"location": {
					"lat": 34.788305,
					"lng": 111.650358
				},
				"_distance": 0,
				"_dir_desc": "内"
			},
			"street": {
				"id": "54926140",
				"title": "连霍高速公路",
				"location": {
					"lat": 34.753863,
					"lng": 111.677367
				},
				"_distance": 0
			},
			"landmark_l2": {
				"id": "2827165912959685364",
				"title": "寨子",
				"location": {
					"lat": 34.7614,
					"lng": 111.67761
				},
				"_distance": 844.2,
				"_dir_desc": "南"
			}
		}
	},
	"msg": "success"
}
